[{"lng": "-40.072828310618604", "aid": "7442", "3": "-13.859604552522004", "lat": "-13.859604552522004", "name": "CrossFit Jequie", "4": "-40.072828310618604", "state": "Bahia", "country": "Brazil", "1": "Bahia", "2": "Brazil", "0": "CrossFit Jequie", "5": "7442"}, {"lng": "-38.5082445", "aid": "8031", "3": "-13.0066067", "lat": "-13.0066067", "name": "CrossFit Barra Action", "4": "-38.5082445", "state": "Bahia", "country": "Brazil", "1": "Bahia", "2": "Brazil", "0": "CrossFit Barra Action", "5": "8031"}, {"lng": "-38.4575213", "aid": "10632", "3": "-13.0040332", "lat": "-13.0040332", "name": "Aldeia CrossFit", "4": "-38.4575213", "state": "Bahia", "country": "Brazil", "1": "Bahia", "2": "Brazil", "0": "Aldeia CrossFit", "5": "10632"}, {"lng": "-38.4933028", "aid": "11246", "3": "-13.0110912", "lat": "-13.0110912", "name": "Pulsar CrossFit", "4": "-38.4933028", "state": "Bahia", "country": "Brazil", "1": "Bahia", "2": "Brazil", "0": "Pulsar CrossFit", "5": "11246"}, {"lng": "-38.45647", "aid": "12275", "3": "-12.9907729", "lat": "-12.9907729", "name": "CrossFit Alcateia", "4": "-38.45647", "state": "Bahia", "country": "Brazil", "1": "Bahia", "2": "Brazil", "0": "CrossFit Alcateia", "5": "12275"}, {"lng": "-38.4569491", "aid": "13482", "3": "-13.0034511", "lat": "-13.0034511", "name": "CrossFit SSA", "4": "-38.4569491", "state": "Bahia", "country": "Brazil", "1": "Bahia", "2": "Brazil", "0": "CrossFit SSA", "5": "13482"}, {"lng": "-38.433566093444824", "aid": "13787", "3": "-12.970581010715252", "lat": "-12.970581010715252", "name": "CrossFit Imbui", "4": "-38.433566093444824", "state": "Bahia", "country": "Brazil", "1": "Bahia", "2": "Brazil", "0": "CrossFit Imbui", "5": "13787"}, {"lng": "-38.304168", "aid": "14125", "3": "-12.8930596", "lat": "-12.8930596", "name": "Pulsar CrossFit 2", "4": "-38.304168", "state": "Bahia", "country": "Brazil", "1": "Bahia", "2": "Brazil", "0": "Pulsar CrossFit 2", "5": "14125"}, {"lng": "-38.5225516", "aid": "15017", "3": "-12.9926932", "lat": "-12.9926932", "name": "Summer CrossFit", "4": "-38.5225516", "state": "Bahia", "country": "Brazil", "1": "Bahia", "2": "Brazil", "0": "Summer CrossFit", "5": "15017"}, {"lng": "-38.4375135", "aid": "16225", "3": "-12.989958", "lat": "-12.989958", "name": "CrossFit Maral", "4": "-38.4375135", "state": "Bahia", "country": "Brazil", "1": "Bahia", "2": "Brazil", "0": "CrossFit Maral", "5": "16225"}, {"lng": "-40.83900868892669", "aid": "16711", "3": "-14.871241568295506", "lat": "-14.871241568295506", "name": "CrossFit OnzeOnze", "4": "-40.83900868892669", "state": "Bahia", "country": "Brazil", "1": "Bahia", "2": "Brazil", "0": "CrossFit OnzeOnze", "5": "16711"}, {"lng": "-38.5030233", "aid": "16767", "3": "-13.0004741", "lat": "-13.0004741", "name": "CrossFit Oxente", "4": "-38.5030233", "state": "Bahia", "country": "Brazil", "1": "Bahia", "2": "Brazil", "0": "CrossFit Oxente", "5": "16767"}, {"lng": "-38.4601847", "aid": "17676", "3": "-12.9867086", "lat": "-12.9867086", "name": "Garagem 164 CrossFit", "4": "-38.4601847", "state": "Bahia", "country": "Brazil", "1": "Bahia", "2": "Brazil", "0": "Garagem 164 CrossFit", "5": "17676"}, {"lng": "-40.0693947", "aid": "18390", "3": "-13.8547952", "lat": "-13.8547952", "name": "CrossFit 7373", "4": "-40.0693947", "state": "Bahia", "country": "Brazil", "1": "Bahia", "2": "Brazil", "0": "CrossFit 7373", "5": "18390"}, {"lng": "-39.2714495", "aid": "18910", "3": "-14.7824493", "lat": "-14.7824493", "name": "CrossFit Itabuna", "4": "-39.2714495", "state": "Bahia", "country": "Brazil", "1": "Bahia", "2": "Brazil", "0": "CrossFit Itabuna", "5": "18910"}, {"lng": "-38.48005950450898", "aid": "19277", "3": "-12.974700283846254", "lat": "-12.974700283846254", "name": "CrossFit Get Up", "4": "-38.48005950450898", "state": "Bahia", "country": "Brazil", "1": "Bahia", "2": "Brazil", "0": "CrossFit Get Up", "5": "19277"}, {"lng": "-38.4392466", "aid": "19903", "3": "-12.9718633", "lat": "-12.9718633", "name": "CrossFit MALTA", "4": "-38.4392466", "state": "Bahia", "country": "Brazil", "1": "Bahia", "2": "Brazil", "0": "CrossFit MALTA", "5": "19903"}, {"lng": "-38.3850344", "aid": "20153", "3": "-12.9446481", "lat": "-12.9446481", "name": "Go Piat\u00e3 CrossFit", "4": "-38.3850344", "state": "Bahia", "country": "Brazil", "1": "Bahia", "2": "Brazil", "0": "Go Piat\u00e3 CrossFit", "5": "20153"}, {"lng": "-38.3147401", "aid": "20570", "3": "-12.9218179", "lat": "-12.9218179", "name": "Pelot\u00e3o CrossFit", "4": "-38.3147401", "state": "Bahia", "country": "Brazil", "1": "Bahia", "2": "Brazil", "0": "Pelot\u00e3o CrossFit", "5": "20570"}]